[
	{
		"name" : "Given",
		"tel" : "(61) 1-300-321-456",
		"webAdress" : "http://google.com",
		"adress" : "xxxxx",
		"business_hours" : "AM 9:00 ~ PM 6:00"
	},
	{
		"name" : "Given",
		"tel" : "(61) 1-300-321-456",
		"webAdress" : "http://google.com",
		"adress" : "xxxxx",
		"business_hours" : "AM 9:00 ~ PM 6:00"
	},
	{
		"name" : "Given",
		"tel" : "(61) 1-300-321-456",
		"webAdress" : "http://google.com",
		"adress" : "xxxxx",
		"business_hours" : "AM 9:00 ~ PM 6:00"
	},
	{
		"name" : "Given",
		"tel" : "(61) 1-300-321-456",
		"webAdress" : "http://google.com",
		"adress" : "xxxxx",
		"business_hours" : "AM 9:00 ~ PM 6:00"
	},
	{
		"name" : "Given",
		"tel" : "(61) 1-300-321-456",
		"webAdress" : "http://google.com",
		"adress" : "xxxxx",
		"business_hours" : "AM 9:00 ~ PM 6:00"
	},
	{
		"name" : "Given",
		"tel" : "(61) 1-300-321-456",
		"webAdress" : "http://google.com",
		"adress" : "xxxxx",
		"business_hours" : "AM 9:00 ~ PM 6:00"
	},
	{
		"name" : "Given",
		"tel" : "(61) 1-300-321-456",
		"webAdress" : "http://google.com",
		"adress" : "xxxxx",
		"business_hours" : "AM 9:00 ~ PM 6:00"
	},
	{
		"name" : "Given",
		"tel" : "(61) 1-300-321-456",
		"webAdress" : "http://google.com",
		"adress" : "xxxxx",
		"business_hours" : "AM 9:00 ~ PM 6:00"
	},
	{
		"name" : "Given",
		"tel" : "(61) 1-300-321-456",
		"webAdress" : "http://google.com",
		"adress" : "xxxxx",
		"business_hours" : "AM 9:00 ~ PM 6:00"
	},
	{
		"name" : "Given",
		"tel" : "(61) 1-300-321-456",
		"webAdress" : "http://google.com",
		"adress" : "xxxxx",
		"business_hours" : "AM 9:00 ~ PM 6:00"
	},
	{
		"name" : "Given",
		"tel" : "(61) 1-300-321-456",
		"webAdress" : "http://google.com",
		"adress" : "xxxxx",
		"business_hours" : "AM 9:00 ~ PM 6:00"
	}
]
